[
  {
    "state": "Abruzzo",
    "town": "Avezzano",
    "postalcode": 67051,
    "county": "Aq",
    "name": "Ospedale Civile",
    "street": "Tre Conche",
    "email": "",
    "domainIdentifier": "",
    "country": "IT",
    "location": { "type": "Point", "coordinates": [13.4187642, 42.0508987] }
  },
  {
    "state": "Basilicata",
    "town": "Matera",
    "postalcode": 75100,
    "county": "Mt",
    "name": "Ospedale Madonna Delle Grazie",
    "street": "Contrada Cattedra Ambulante",
    "email": "",
    "domainIdentifier": "",
    "country": "IT",
    "location": { "type": "Point", "coordinates": [16.601585, 40.668523] }
  },
  {
    "state": "Basilicata",
    "town": "Potenza",
    "postalcode": 85101,
    "county": "Pz",
    "name": "Ospedale San Carlo",
    "street": "Contrada Macchia Romana",
    "email": "",
    "domainIdentifier": "",
    "country": "IT",
    "location": { "type": "Point", "coordinates": [15.806281, 40.651872] }
  },
  {
    "state": "Calabria",
    "town": "Polistena",
    "postalcode": 89024,
    "county": "Rc",
    "name": "Ospedale Santa Maria Degli Ungeresi",
    "street": "Via Montegrappa",
    "email": "",
    "domainIdentifier": "",
    "country": "IT",
    "location": { "type": "Point", "coordinates": [16.0766895, 38.409031] }
  },
  {
    "state": "Calabria",
    "town": "Reggio Calabria",
    "postalcode": 89024,
    "county": "Rc",
    "name": "Ospedale Bianchi Melacrino Morelli",
    "street": "Via Melacrino Giuseppe 21",
    "email": "",
    "domainIdentifier": "",
    "country": "IT",
    "location": { "type": "Point", "coordinates": [15.6581187, 38.1147285] }
  },
  {
    "state": "Campania",
    "town": "Benevento",
    "postalcode": 82100,
    "county": "Bn",
    "name": "Ospedale Civile Rummo Di Benevento",
    "street": "Via Pacevecchia 53",
    "email": "",
    "domainIdentifier": "",
    "country": "IT",
    "location": { "type": "Point", "coordinates": [14.79327, 41.120187] }
  },
  {
    "state": "Campania",
    "town": "Benevento",
    "postalcode": 82100,
    "county": "Bn",
    "name": "Ospedale Sacro Cuore Di Gesu' - Fatebenefratelli",
    "street": "Via Principe di Napoli 14",
    "email": "",
    "domainIdentifier": "",
    "country": "IT",
    "location": { "type": "Point", "coordinates": [14.7030885, 41.1411049] }
  },
  {
    "state": "Campania",
    "town": "Maddaloni",
    "postalcode": 81024,
    "county": "Ce",
    "name": "Ospedale Civile Maddaloni",
    "street": "Via Liberta'",
    "email": "",
    "domainIdentifier": "",
    "country": "IT",
    "location": { "type": "Point", "coordinates": [14.3792066, 41.0398815] }
  },
  {
    "state": "Emilia Romagna",
    "town": "Bazzano",
    "postalcode": 40053,
    "county": "Bo",
    "name": "Ospedale Di Bazzano",
    "street": "Viale Dei Martiri 1",
    "email": "",
    "domainIdentifier": "",
    "country": "IT",
    "location": { "type": "Point", "coordinates": [11.0889142, 44.5028204] }
  },
  {
    "state": "Emilia Romagna",
    "town": "Bentivoglio",
    "postalcode": 40010,
    "county": "Bo",
    "name": "Ospedale Consorziale Si Bentivoglio",
    "street": "Via G. Marconi 35",
    "email": "",
    "domainIdentifier": "",
    "country": "IT",
    "location": { "type": "Point", "coordinates": [11.4171933, 44.6357918] }
  },
  {
    "state": "Emilia Romagna",
    "town": "Cesena",
    "postalcode": 47023,
    "county": "Fc",
    "name": "Ospedale Civile Maurizio Bufalini",
    "street": "Viale Ghirotti 286",
    "email": "",
    "domainIdentifier": "",
    "country": "IT",
    "location": { "type": "Point", "coordinates": [12.2596753, 44.1345972] }
  },
  {
    "state": "Friuli Venezia Giulia",
    "town": "San Vito Al Tagliamento",
    "postalcode": 33078,
    "county": "Pn",
    "name": "Ospedale Civile",
    "street": "Via Savorgnano 2",
    "email": "",
    "domainIdentifier": "",
    "country": "IT",
    "location": { "type": "Point", "coordinates": [12.855550085519976, 45.91127005] }
  },
  {
    "state": "Friuli Venezia Giulia",
    "town": "Trieste",
    "postalcode": 34149,
    "county": "Ts",
    "name": "Ospedale Di Cattinara Istituto Di Clinica Urologica -universita' Studi Di Trieste",
    "street": "Strada di Fiume 447",
    "email": "",
    "domainIdentifier": "",
    "country": "IT",
    "location": { "type": "Point", "coordinates": [13.827527813975527, 45.633727199999996] }
  },
  {
    "state": "Lazio",
    "town": "Ostia",
    "postalcode": 122,
    "county": "Rm",
    "name": "Ospedale Grassi",
    "street": "Via Passeroni 28",
    "email": "",
    "domainIdentifier": "",
    "country": "IT",
    "location": { "type": "Point", "coordinates": [12.285744222370944, 41.753654] }
  },
  {
    "state": "Lazio",
    "town": "Roma",
    "postalcode": 152,
    "county": "Rm",
    "name": "Ospedale San Camillo Forlanini",
    "street": "Via Circonvallazione Gianicolense 87",
    "email": "",
    "domainIdentifier": "",
    "country": "IT",
    "location": { "type": "Point", "coordinates": [12.4829321, 41.8933203] }
  },
  {
    "state": "Liguria",
    "town": "Imperia",
    "postalcode": 18100,
    "county": "Im",
    "name": "Ospedale Civile",
    "street": "Via Sant'Agata 31",
    "email": "",
    "domainIdentifier": "",
    "country": "IT",
    "location": { "type": "Point", "coordinates": [8.0315195, 43.8916706] }
  },
  {
    "state": "Liguria",
    "town": "La Spezia",
    "postalcode": 19125,
    "county": "Sp",
    "name": "Ambulatorio Stomie C/o Distretto Asl",
    "street": "Via Bragarina",
    "email": "",
    "domainIdentifier": "",
    "country": "IT",
    "location": { "type": "Point", "coordinates": [9.847462, 44.1173915] }
  },
  {
    "state": "Lombardia",
    "town": "Chiari",
    "postalcode": 25032,
    "county": "Bs",
    "name": "Ospedale Civile",
    "street": "Viale Mazzini",
    "email": "",
    "domainIdentifier": "",
    "country": "IT",
    "location": { "type": "Point", "coordinates": [9.9317182, 45.5387633] }
  },
  {
    "state": "Lombardia",
    "town": "Desenzano Del Garda",
    "postalcode": 25015,
    "county": "Bs",
    "name": "Azienda Ospedaliera Di Desenzano Del Garda",
    "street": "Via Monte Croce 1",
    "email": "",
    "domainIdentifier": "",
    "country": "IT",
    "location": { "type": "Point", "coordinates": [10.5260713, 45.4695411] }
  },
  {
    "state": "Lombardia",
    "town": "Milano",
    "postalcode": 20132,
    "county": "Mi",
    "name": "Ospedale San Raffaele",
    "street": "Via Olgettina 60",
    "email": "",
    "domainIdentifier": "",
    "country": "IT",
    "location": { "type": "Point", "coordinates": [9.2670046, 45.5097542] }
  },
  {
    "state": "Marche",
    "town": "Jesi",
    "postalcode": 60035,
    "county": "An",
    "name": "Ospedale Carlo Urbani",
    "street": "Via Aldo Moro",
    "email": "",
    "domainIdentifier": "",
    "country": "IT",
    "location": { "type": "Point", "coordinates": [13.2443764, 43.5219801] }
  },
  {
    "state": "Marche",
    "town": "Senigallia",
    "postalcode": 60019,
    "county": "An",
    "name": "Ospedale Civile",
    "street": "Via Benvenuto Cellini 1",
    "email": "",
    "domainIdentifier": "",
    "country": "IT",
    "location": { "type": "Point", "coordinates": [13.2111428, 43.7142815] }
  },
  {
    "state": "Molise",
    "town": "Campobasso",
    "postalcode": 86100,
    "county": "Cb",
    "name": "Ospedale Univiversita' Cattolica Sacro Cuore",
    "street": "L.go A. Gemelli 1 Contrada Tappino",
    "email": "",
    "domainIdentifier": "",
    "country": "IT",
    "location": { "type": "Point", "coordinates": [14.6602725, 41.5597935] }
  },
  {
    "state": "Puglia",
    "town": "San Giovanni Rotondo",
    "postalcode": 71013,
    "county": "Fg",
    "name": "Ospedale Casa Sollievo Della Sofferenza",
    "street": "Piazza dei Martiri 5",
    "email": "",
    "domainIdentifier": "",
    "country": "IT",
    "location": { "type": "Point", "coordinates": [15.727254771606534, 41.7069151] }
  },
  {
    "state": "Piemonte",
    "town": "Acqui Terme",
    "postalcode": 15011,
    "county": "Al",
    "name": "Ospedale Monsignor Giovanni Galliano",
    "street": "Via Fatebenefratelli 1",
    "email": "",
    "domainIdentifier": "",
    "country": "IT",
    "location": { "type": "Point", "coordinates": [8.45078138323073, 44.68022435] }
  },
  {
    "state": "Piemonte",
    "town": "Candiolo",
    "postalcode": 10060,
    "county": "To",
    "name": "Ircc Candiolo",
    "street": "Strada Provinciale142 KM 3",
    "email": "",
    "domainIdentifier": "95",
    "country": "IT",
    "location": { "type": "Point", "coordinates": [7.601722, 44.959244] }
  },
  {
    "state": "Piemonte",
    "town": "Torino",
    "postalcode": 10126,
    "county": "To",
    "name": "Azienda Ospedaliera Molinette",
    "street": "Corso Bramante 88",
    "email": "",
    "domainIdentifier": "",
    "country": "IT",
    "location": { "type": "Point", "coordinates": [7.6745153, 45.0416061] }
  },
  {
    "state": "Piemonte",
    "town": "Torino",
    "postalcode": 10128,
    "county": "To",
    "name": "Azienda Ospedaliera Ordine Mauriziano",
    "street": "Largo Filippo Turati 62",
    "email": "",
    "domainIdentifier": "",
    "country": "IT",
    "location": { "type": "Point", "coordinates": [7.6656893, 45.0504856] }
  },
  {
    "state": "Piemonte",
    "town": "Torino",
    "postalcode": 10154,
    "county": "To",
    "name": "Ospedale San Giovanni Bosco",
    "street": "Via Botticelli",
    "email": "",
    "domainIdentifier": "",
    "country": "IT",
    "location": { "type": "Point", "coordinates": [7.7064986, 45.1027058] }
  },
  {
    "state": "Puglia",
    "town": "Altamura",
    "postalcode": 70022,
    "county": "Ba",
    "name": "Ospedale Fabio Perinei Ospedale Della Murgia",
    "street": "SS 96 Altamura",
    "email": "",
    "domainIdentifier": "",
    "country": "IT",
    "location": { "type": "Point", "coordinates": [16.5527314, 40.8285595] }
  },
  {
    "state": "Puglia",
    "town": "Martina Franca",
    "postalcode": 74015,
    "county": "Ta",
    "name": "Ospedale Valle D'itria",
    "street": "Piazza San Francesco da Paola 1",
    "email": "",
    "domainIdentifier": "",
    "country": "IT",
    "location": { "type": "Point", "coordinates": [17.3430903, 40.7051791] }
  },
  {
    "state": "Puglia",
    "town": "Taranto",
    "postalcode": 74100,
    "county": "Ta",
    "name": "Presidio Ospedaliero Ss Annunziata",
    "street": "Via F. Bruno 1",
    "email": "",
    "domainIdentifier": "",
    "country": "IT",
    "location": { "type": "Point", "coordinates": [17.2432278, 40.4712427] }
  },
  {
    "state": "Sardegna",
    "town": "Carbonia-iglesias",
    "postalcode": 7100,
    "county": "Ci",
    "name": "Ospedale Sirai",
    "street": "Via Ospedale",
    "email": "",
    "domainIdentifier": "",
    "country": "IT",
    "location": { "type": "Point", "coordinates": [8.507134, 39.185939] }
  },
  {
    "state": "Sardegna",
    "town": "Nuoro",
    "postalcode": 8100,
    "county": "Nu",
    "name": "Ospedale San Francesco",
    "street": "Via Mannironi 1",
    "email": "",
    "domainIdentifier": "",
    "country": "IT",
    "location": { "type": "Point", "coordinates": [9.3975638, 40.2839892] }
  },
  {
    "state": "Sardegna",
    "town": "Olbia",
    "postalcode": 7026,
    "county": "Ot",
    "name": "Ospedale Giovanni Paolo Ii",
    "street": "Via Bazzoni - Sircana",
    "email": "",
    "domainIdentifier": "",
    "country": "IT",
    "location": { "type": "Point", "coordinates": [9.4767501, 40.9141218] }
  },
  {
    "state": "Sardegna",
    "town": "Alghero",
    "postalcode": 7141,
    "county": "Ss",
    "name": "Ospedale Civile",
    "street": "Via Don Minzoni",
    "email": "",
    "domainIdentifier": "",
    "country": "IT",
    "location": { "type": "Point", "coordinates": [8.3179568, 40.5821219] }
  },
  {
    "state": "Sardegna",
    "town": "Sassari",
    "postalcode": 7100,
    "county": "Ss",
    "name": "Aziensa Ospedaliera Universitaria Di Sassari",
    "street": "Viale S. Pietro 43",
    "email": "",
    "domainIdentifier": "",
    "country": "IT",
    "location": { "type": "Point", "coordinates": [8.5535382, 40.7215015] }
  },
  {
    "state": "Sicilia",
    "town": "Catania",
    "postalcode": 95123,
    "county": "Ct",
    "name": "Policlinico Universitario Rodolico",
    "street": "Via Santa Sofia 78",
    "email": "",
    "domainIdentifier": "",
    "country": "IT",
    "location": { "type": "Point", "coordinates": [15.0688537, 37.52961] }
  },
  {
    "state": "Sicilia",
    "town": "Catania",
    "postalcode": 95124,
    "county": "Ct",
    "name": "Ospedale Garibaldi Centro",
    "street": "Piazza Santa Maria di Gesù 5",
    "email": "",
    "domainIdentifier": "",
    "country": "IT",
    "location": { "type": "Point", "coordinates": [15.078567278797935, 37.51228965] }
  },
  {
    "state": "Sicilia",
    "town": "Catania",
    "postalcode": 95122,
    "county": "Ct",
    "name": "Osp Garibaldi Nesima",
    "street": "Via Palermo 636",
    "email": "",
    "domainIdentifier": "",
    "country": "IT",
    "location": { "type": "Point", "coordinates": [15.0418814, 37.5113346] }
  },
  {
    "state": "Sicilia",
    "town": "Palermo",
    "postalcode": " 4",
    "county": "Pa",
    "name": "Fatebenefratelli",
    "street": "Piazza Nicola Leotta",
    "email": "",
    "domainIdentifier": "",
    "country": "IT",
    "location": { "type": "Point", "coordinates": [13.3524434, 38.1112268] }
  },
  {
    "state": "Sicilia",
    "town": "Palermo",
    "postalcode": 90127,
    "county": "Pa",
    "name": "Ospedale Policlinico",
    "street": "Via Del Vespro 129",
    "email": "",
    "domainIdentifier": "",
    "country": "IT",
    "location": { "type": "Point", "coordinates": [13.3627699, 38.1041882] }
  },
  {
    "state": "Sicilia",
    "town": "Palermo",
    "postalcode": 90146,
    "county": "Pa",
    "name": "Ospedali Riuniti Villa Sofia-cervello (presidio Villa Sofia)",
    "street": "Piazza Salerno1",
    "email": "",
    "domainIdentifier": "",
    "country": "IT",
    "location": { "type": "Point", "coordinates": [13.3524434, 38.1112268] }
  },
  {
    "state": "Toscana",
    "town": "Grosseto",
    "postalcode": 58100,
    "county": "Gr",
    "name": "Ospedale Della Misericordia",
    "street": "Via Senese 161",
    "email": "",
    "domainIdentifier": "",
    "country": "IT",
    "location": { "type": "Point", "coordinates": [11.1175501, 42.7661463] }
  },
  {
    "state": "Toscana",
    "town": "Cecina",
    "postalcode": 57023,
    "county": "Li",
    "name": "Ospedale Nuovo Di Cecina",
    "street": "Via Montanara",
    "email": "",
    "domainIdentifier": "",
    "country": "IT",
    "location": { "type": "Point", "coordinates": [10.5213741, 43.3136995] }
  },
  {
    "state": "Toscana",
    "town": "Livorno",
    "postalcode": 57124,
    "county": "Li",
    "name": "Presidio Ospedaliero Di Livorno",
    "street": "Viale Vittorio Alfieri 18",
    "email": "",
    "domainIdentifier": "",
    "country": "IT",
    "location": { "type": "Point", "coordinates": [10.32697, 43.5531984] }
  },
  {
    "state": "Toscana",
    "town": "Siena",
    "postalcode": 53100,
    "county": "Si",
    "name": "Azienda Ospedaliera Senese Le Scotte",
    "street": "Strada delle Scotte 14",
    "email": "",
    "domainIdentifier": "",
    "country": "IT",
    "location": { "type": "Point", "coordinates": [11.3266478, 43.3431575] }
  },
  {
    "state": "Trentino Alto Adige",
    "town": "Bolzano",
    "postalcode": 39100,
    "county": "Bz",
    "name": "Ospedale Centro Sud Bolzano",
    "street": "Via Lorenz Bohler 5",
    "email": "",
    "domainIdentifier": "",
    "country": "IT",
    "location": { "type": "Point", "coordinates": [11.308806, 46.4988821] }
  },
  {
    "state": "Trentino Alto Adige",
    "town": "Bressanone",
    "postalcode": 39042,
    "county": "Bz",
    "name": "Ospedale Di Bressanone",
    "street": "Via Dante 51",
    "email": "",
    "domainIdentifier": "",
    "country": "IT",
    "location": { "type": "Point", "coordinates": [11.6476482, 46.7228418] }
  },
  {
    "state": "Umbria",
    "town": "Foligno",
    "postalcode": 6034,
    "county": "Pg",
    "name": "Nuovo Ospedalale San Giovanni Battista",
    "street": "Via Massimo Arcamone",
    "email": "",
    "domainIdentifier": "",
    "country": "IT",
    "location": { "type": "Point", "coordinates": [12.6845659, 42.9608309] }
  },
  {
    "state": "Umbria",
    "town": "Gubbio",
    "postalcode": 6024,
    "county": "Pg",
    "name": "Presidio Ospedaliero Di Gubbio E Gualdo Tadino",
    "street": "Largo Unità d'Italia Località Branca",
    "email": "",
    "domainIdentifier": "",
    "country": "IT",
    "location": { "type": "Point", "coordinates": [12.5772674, 43.3517882] }
  },
  {
    "state": "Veneto",
    "town": "Feltre",
    "postalcode": 32032,
    "county": "Bl",
    "name": "Ospedale Civile Di Feltre",
    "street": "Via Bagnols Sur Cèzè 1",
    "email": "",
    "domainIdentifier": "",
    "country": "IT",
    "location": { "type": "Point", "coordinates": [11.90694941154635, 46.02266805] }
  },
  {
    "state": "Veneto",
    "town": "Abano Terme",
    "postalcode": 35031,
    "county": "Pd",
    "name": "Ospedale Abano Terme",
    "street": "Piazza Cristoforo Colombo 1",
    "email": "",
    "domainIdentifier": "",
    "country": "IT",
    "location": { "type": "Point", "coordinates": [11.78671618013447, 45.349273600000004] }
  },
  {
    "state": "Veneto",
    "town": "Conegliano",
    "postalcode": 31015,
    "county": "Tv",
    "name": "Ospedale Civile Di Conegliano",
    "street": "Via Brigata Bisagno 4",
    "email": "",
    "domainIdentifier": "",
    "country": "IT",
    "location": { "type": "Point", "coordinates": [12.2905223, 45.8814176] }
  },
  {
    "state": "Veneto",
    "town": "Montebelluna",
    "postalcode": 31044,
    "county": "Tv",
    "name": "Presidio Ospedaliero Di Montebelluna",
    "street": "Via Montegrappa 32",
    "email": "",
    "domainIdentifier": "",
    "country": "IT",
    "location": { "type": "Point", "coordinates": [12.0450646, 45.7759956] }
  }
]
